[
  {
    "SysId": "37312551-950b-11e6-8ed7-005056bd5942",
    "Name": "昆明仓",
    "Address": "昆明市呈贡区王家营泛亚物流中心D1栋",
    "Lng": 102.77768756808057,
    "Lat": 24.93778959866293
  },
  {
    "SysId": "24e4a797-fa07-487e-9144-77259f8ebe0e",
    "Name": "宣威仓",
    "Address": "云南省宣威市新庄子附近",
    "Lng": 104.13577205825614,
    "Lat": 26.21676015379056
  },
  {
    "SysId": "4431c99a-0f79-11e7-bca5-246e965399cc",
    "Name": "邮政仓",
    "Address": "昆明市呈贡区洛羊街道彩龙街中铁八局院内邮政仓库",
    "Lng": 102.81491706738658,
    "Lat": 24.932270064256369
  },
  {
    "SysId": "48690250-19e6-40ac-a140-c7cef7293978",
    "Name": "版纳仓",
    "Address": "云南省西双版纳州景洪市环城公路旁孟广路口 ",
    "Lng": 100.92731774533762,
    "Lat": 22.111413013255075
  },
  {
    "SysId": "68eaffea-fb55-4a45-a4e0-93f475a54935",
    "Name": "昌宁仓",
    "Address": "保山市昌宁县田园镇达丙草场坝22号顺兴达茶厂内",
    "Lng": 99.62230436884437,
    "Lat": 24.828647646707446
  },
  {
    "SysId": "6a693610-002d-4b35-a6d7-452a05ff43ff",
    "Name": "红河仓",
    "Address": "蒙自市文澜镇大台子村民委员会第7小组",
    "Lng": 103.33514531001829,
    "Lat": 23.44254265170815
  },
  {
    "SysId": "6de8985e-ca5a-45bd-9880-0d7b3ce9027f",
    "Name": "楚雄仓",
    "Address": "楚雄市紫溪镇前进村委会黑泥坝七队祭天山楚雄盛祥农产品开发有限公司楚雄望江楼野菌园食品加工厂内",
    "Lng": 101.4694338470024,
    "Lat": 25.085158893717808
  },
  {
    "SysId": "9826150a-a746-4d87-8445-1a2d9669555d",
    "Name": "云县仓",
    "Address": "云县爱华镇官庄河阳晨商贸城地下仓库7-9号",
    "Lng": 100.13540185245889,
    "Lat": 24.454194572008267
  },
  {
    "SysId": "b15f7053-f243-4593-8a70-85aaafea4336",
    "Name": "曲靖仓",
    "Address": "云南省曲靖市云南农垦曲靖制造基地（曲靖市西部客运站背后）",
    "Lng": 103.78253888802674,
    "Lat": 25.520758142870503
  },
  {
    "SysId": "b2137483-a583-4c94-8483-dbf44c1fdd2e",
    "Name": "大理仓",
    "Address": "大理白族自治州大理市凤仪镇红山飞来寺旁（大理红山岩水泥有限责任公司办公大楼北面仓库）",
    "Lng": 100.31816893462708,
    "Lat": 25.590797835202069
  },
  {
    "SysId": "b84465eb-2d97-4470-b31c-da7d256ffbdd",
    "Name": "丽江仓",
    "Address": "云南省丽江市团山南路（丽江安盛金永货运物流有限公司）",
    "Lng": 100.22962839887937,
    "Lat": 26.875351089481364
  },
  {
    "SysId": "c1ab67bf-9ada-47cc-811d-4db3e95dee8c",
    "Name": "马关仓",
    "Address": "马关县马白镇新堡寨（原古林突然药厂）",
    "Lng": 104.38798505710564,
    "Lat": 23.040506520836574
  },
  {
    "SysId": "cdd42312-4d97-46f8-a682-c9f6dd31405d",
    "Name": "七甸仓",
    "Address": "昆明阳宗海管委会七甸工业园区小哨片区哨达路",
    "Lng": 102.93126290567716,
    "Lat": 24.967447421276288
  },
  {
    "SysId": "d36541a4-f7f3-47da-b660-4f71612dde97",
    "Name": "玉溪仓",
    "Address": "玉溪市通力物流园旁前列电缆厂",
    "Lng": 102.49657367801737,
    "Lat": 24.342615700626394
  }
]